{
    "eateries": [
        {
            "name": "McDonald's ",
            "address": "Bugis Junction Victoria Street #1-K5 Singapore 188021",
            "latitude": "1.29911316126836",
            "longitude": "103.855411151136"
        },
        {
            "name": "McDonald's ",
            "address": "Bugis Village Rochor Road #1-42 Singapore 188426",
            "latitude": "1.30089884539002",
            "longitude": "103.855242173644"
        },
        {
            "name": "McDonald's ",
            "address": " Bukit Batok Central #1-10 Singapore 650632",
            "latitude": "1.34941218045919",
            "longitude": "103.750538659689"
        },
        {
            "name": "McDonald's ",
            "address": " Bukit Batok Street 11 #1-451 Singapore 650152",
            "latitude": "1.34830189004312",
            "longitude": "103.744257269677"
        },
        {
            "name": "McDonald's ",
            "address": " Bukit Batok Street 31 #1-27 Singapore 650374",
            "latitude": "1.35809927236864",
            "longitude": "103.750719677477"
        },
        {
            "name": "McDonald's ",
            "address": "Bukit Panjang Plaza Jelebu Road #2-24 Singapore 677743",
            "latitude": "1.38051732815913",
            "longitude": "103.763961852618"
        },
        {
            "name": "McDonald's ",
            "address": "Causeway Point Woodlands Square #1-9 Singapore 738099",
            "latitude": "1.43600784517148",
            "longitude": "103.785688739235"
        },
        {
            "name": "McDonald's ",
            "address": "Changi Airport Terminal 2 Airport Boulevard, Changi Airport Terminal 2\u00c2\u00a0 Mezzanine Level Arrival Meeting #M016-41 Singapore 819643",
            "latitude": "1.35519094047222",
            "longitude": "103.98875098125"
        },
        {
            "name": "McDonald's ",
            "address": "Changi Airport Terminal 2 Airport Boulevard, Changi Airport Terminal 2\u00c2\u00a0 Departure, Transit Lounge Central #36-151 Singapore 819643",
            "latitude": "1.35519094047222",
            "longitude": "103.98875098125"
        },
        {
            "name": "McDonald's ",
            "address": "Changi Airport Terminal 3 Airport Boulevard, Changi Airport Terminal 3\u00c2\u00a0Arrival Meeting Hall South #1-9 Singapore 819663",
            "latitude": "1.35437073617361",
            "longitude": "103.985169653268"
        },
        {
            "name": "McDonald's ",
            "address": "Changi Airport Terminal 4 Airport Boulevard, Changi Airport Terminal 4\u00c2\u00a0Mezzanie Departure , Check-in Hall #2-19 Singapore 819665",
            "latitude": "1.33800813358939",
            "longitude": "103.983482808095"
        },
        {
            "name": "McDonald's ",
            "address": "Changi City Point Changi Business Park Central 1 #1-2 Singapore 486038",
            "latitude": "1.33432515600982",
            "longitude": "103.962389303195"
        },
        {
            "name": "McDonald's ",
            "address": "Chinatown Point New Bridge Road #1-83 Singapore 59413",
            "latitude": "1.28499882771297",
            "longitude": "103.844697085395"
        },
        {
            "name": "McDonald's ",
            "address": "Lot One Choa Chu Kang Avenue 4 #1- Singapore 689812",
            "latitude": "1.38506835667563",
            "longitude": "103.744950384161"
        },
        {
            "name": "McDonald's ",
            "address": " Choa Chu Kang Street 62 #2-39 Singapore 680624",
            "latitude": "1.39778139107438",
            "longitude": "103.746974057323"
        },
        {
            "name": "McDonald's ",
            "address": " Choa Chu Kang Street 62 #1-2 Singapore 680623",
            "latitude": "1.39832133844495",
            "longitude": "103.747344864514"
        },
        {
            "name": "McDonald's ",
            "address": "Choa Chu Kang MRT Station Choa Chu Kang Avenue 4 #1- Singapore 689810",
            "latitude": "1.38567271102513",
            "longitude": "103.744139121773"
        },
        {
            "name": "McDonald's ",
            "address": "Limbang Shopping Centre Choa Chu Kang Street 51 #1- Singapore 680533",
            "latitude": "1.39207388486115",
            "longitude": "103.743099575245"
        },
        {
            "name": "McDonald's ",
            "address": "Chong Pang Community Centre Yishun Ring Road #1-2 Singapore 768677",
            "latitude": "1.43083237048448",
            "longitude": "103.829234874916"
        },
        {
            "name": "McDonald's ",
            "address": "Choa Chu Kang Community Centre Teck Whye Avenue #1-95 Singapore 688892",
            "latitude": "1.38115529003063",
            "longitude": "103.751903886481"
        },
        {
            "name": "McDonald's ",
            "address": "City Square Mall Kitchener Road #B1-125 Singapore 208539",
            "latitude": "1.31130516479713",
            "longitude": "103.856421771906"
        },
        {
            "name": "McDonald's ",
            "address": " Clementi Avenue 3 #1-19 Singapore 120451",
            "latitude": "1.31248297973128",
            "longitude": "103.765476761292"
        },
        {
            "name": "McDonald's ",
            "address": "Clementi Mall Commonwealth Avenue West #1-K2 Singapore 129588",
            "latitude": "1.31485321802259",
            "longitude": "103.764248205662"
        },
        {
            "name": "McDonald's ",
            "address": "Parkway Parade Marine Parade Central Parkway Centre #1-1 Singapore 449408",
            "latitude": "1.30188733400279",
            "longitude": "103.9059960379"
        },
        {
            "name": "McDonald's ",
            "address": "White Sands Shopping Centre Pasir Ris Central Street 3 #1-29 Singapore 518457",
            "latitude": "1.3724498161424",
            "longitude": "103.949715702336"
        },
        {
            "name": "McDonald's ",
            "address": "Pasir Ris Sports & Recreation Centre Pasir Ris Central #1-12 Singapore 519640",
            "latitude": "1.37444845586214",
            "longitude": "103.95182250671"
        },
        {
            "name": "McDonald's ",
            "address": "Paya Lebar Square Paya Lebar Road #1-68 Singapore 409051",
            "latitude": "1.3186757503745",
            "longitude": "103.892550607124"
        },
        {
            "name": "McDonald's ",
            "address": "People's Park Complex Park Road #1-69 Singapore 59108",
            "latitude": "1.28413390917012",
            "longitude": "103.842519572814"
        },
        {
            "name": "McDonald's ",
            "address": "Pioneer Mall Jurong West Street 61 #1-1 Singapore 640638",
            "latitude": "1.34159107979645",
            "longitude": "103.69702008582"
        },
        {
            "name": "McDonald's ",
            "address": "Plaza Singapura Orchard Road #B1-23 Singapore 238839",
            "latitude": "1.3007475429726",
            "longitude": "103.845047622213"
        },
        {
            "name": "McDonald's ",
            "address": " Potong Pasir Avenue 1 #1-43 Singapore 350148",
            "latitude": "1.33235435193401",
            "longitude": "103.867774260572"
        },
        {
            "name": "McDonald's ",
            "address": "PSA Building (Alexandra Retail Centre) Alexandra Road #1-25 Singapore 119963",
            "latitude": "1.27367657754602",
            "longitude": "103.801126950046"
        },
        {
            "name": "McDonald's ",
            "address": "Punggol 21 Community Centre Punggol Field #1-2 Singapore 828815",
            "latitude": "1.39360624159957",
            "longitude": "103.913464113125"
        },
        {
            "name": "McDonald's ",
            "address": "Punggol Safra Sentul Crescent #3-5 Singapore 828654",
            "latitude": "1.41011328238339",
            "longitude": "103.906031928713"
        },
        {
            "name": "McDonald's ",
            "address": "Ridout Tea Garden Queensway #1-1 Singapore 149066",
            "latitude": "1.30406164088781",
            "longitude": "103.802110379512"
        },
        {
            "name": "McDonald's ",
            "address": "Queensway Shopping Centre Queensway #2-46 Singapore 149053",
            "latitude": "1.28761791591215",
            "longitude": "103.80339114218"
        },
        {
            "name": "McDonald's ",
            "address": "Raffles City Shopping Centre North Bridge Road #1-49 Singapore 179103",
            "latitude": "1.29376027875417",
            "longitude": "103.852768332387"
        },
        {
            "name": "Mcdonald's ",
            "address": "REGAL Jalan Bukit Merah #1-1 Singapore 159460",
            "latitude": "1.28343107175163",
            "longitude": "103.818222637628"
        },
        {
            "name": "McDonald's ",
            "address": "Resorts World Sentosa Sentosa Gateway #B1-211 Singapore 98138",
            "latitude": "1.25657348610591",
            "longitude": "103.819458960478"
        },
        {
            "name": "McDonald's ",
            "address": "Rivervale Mall Rivervale Crescent #1-27 Singapore 545082",
            "latitude": "1.39219777633908",
            "longitude": "103.904471602179"
        },
        {
            "name": "McDonald's ",
            "address": "Toa Payoh Safra Club House Toa Payoh Lorong 6 #1-2 Singapore 319387",
            "latitude": "1.32988651246208",
            "longitude": "103.854213741098"
        },
        {
            "name": "Kopitiam ",
            "address": "Bukit Panjang Plaza Jelebu Road #3-9 Singapore 677743",
            "latitude": "1.38051732815913",
            "longitude": "103.763961852618"
        },
        {
            "name": "Kopitiam ",
            "address": "Changi General Hospital Simei Street 3 #-89E Singapore 529889",
            "latitude": "1.34068473973666",
            "longitude": "103.949294393687"
        },
        {
            "name": "Kopitiam ",
            "address": "IB@Changi General Hospital Simei Street 3 #-8 Singapore 529905",
            "latitude": "1.34131852591503",
            "longitude": "103.948193387126"
        },
        {
            "name": "Kopitiam ",
            "address": "Hougang 1 Shopping Mall Hougang Street 91 #1-K7 Singapore 538692",
            "latitude": "1.37566727990659",
            "longitude": "103.879450257387"
        },
        {
            "name": "Kopitiam ",
            "address": "IMM Jurong East Street 21 #3-24 Singapore 609601",
            "latitude": "1.33489843717477",
            "longitude": "103.7467344968"
        },
        {
            "name": "Kopitiam ",
            "address": "Harbourfront Centre 1 Maritime Square #1-30 Singapore 99253",
            "latitude": "1.26206336360052",
            "longitude": "103.818625592652"
        },
        {
            "name": "Kopitiam ",
            "address": "Hillion Mall 17 Petir Road #2-8 Singapore 678278",
            "latitude": "1.37834971260865",
            "longitude": "103.76274117629"
        },
        {
            "name": "Kopitiam ",
            "address": "Singapore Post Centre 10 Eunos Road 8 #3-69 Singapore 408600",
            "latitude": "1.31885610260134",
            "longitude": "103.894067163693"
        },
        {
            "name": "Kopitiam ",
            "address": "Changi City Point 5 Changi Business Park Central 1 #2-48 Singapore 486038",
            "latitude": "1.33432515600982",
            "longitude": "103.962389303195"
        },
        {
            "name": "Kopitiam ",
            "address": "Jurong East MRT Jurong East Street 12 #1-6 Singapore 609690",
            "latitude": "1.33329506213869",
            "longitude": "103.742153887676"
        },
        {
            "name": "Kopitiam ",
            "address": "Wisteria Mall Yishun Ring Road #B1-233 Singapore 768698",
            "latitude": "1.41799925556566",
            "longitude": "103.841236459776"
        },
        {
            "name": "Kopitiam ",
            "address": " Sumang lane #-109 Singapore 822231",
            "latitude": "1.4021284201097",
            "longitude": "103.891466929973"
        },
        {
            "name": "BAGUS @ Causeway Point",
            "address": "Causeway Point Woodlands Square #7-K8 Singapore 738099",
            "latitude": "1.43600784517148",
            "longitude": "103.785688739235"
        },
        {
            "name": "Koufu ",
            "address": "100AM Shopping Mall Tras Street #4-14 Singapore 79027",
            "latitude": "1.27458820975744",
            "longitude": "103.843470739068"
        },
        {
            "name": "Koufu ",
            "address": "ITE College Central Ang Mo Kio Drive #1-K13 Singapore 567720",
            "latitude": "1.37789203173292",
            "longitude": "103.856411986641"
        },
        {
            "name": "Koufu ",
            "address": "Anchorpoint Alexandra Road #B1-287 Singapore 159953",
            "latitude": "1.28861468740198",
            "longitude": "103.805009965174"
        },
        {
            "name": "Koufu ",
            "address": "Cathay Cineleisure Grange Road #B1-22 Singapore 239693",
            "latitude": "1.30140331482717",
            "longitude": "103.837328125596"
        },
        {
            "name": "Koufu ",
            "address": "Gek Poh Shopping Mall Jurong West Street 75 #1-7 Singapore 640760",
            "latitude": "1.34942545429356",
            "longitude": "103.699782251278"
        },
        {
            "name": "Koufu ",
            "address": "JEM Shopping Mall Jurong Gateway Road #5-2 Singapore 608549",
            "latitude": "1.33320021038331",
            "longitude": "103.743170436293"
        },
        {
            "name": "KouFu ",
            "address": " 535 Clementi Road #2-825 Singapore 599489",
            "latitude": "1.3327625965271",
            "longitude": "103.771562462036"
        },
        {
            "name": "Koufu ",
            "address": "South Spine Food Court Nanyang Avenue #-21 Singapore 639798",
            "latitude": "1.34676465089635",
            "longitude": "103.678818138199"
        },
        {
            "name": "Koufu ",
            "address": "University Town Create Way #1-12 Singapore 138602",
            "latitude": "1.30399550833056",
            "longitude": "103.773492158612"
        },
        {
            "name": "Koufu ",
            "address": "South Food Court Woodlands Avenue 9 #1-3 Singapore 738964",
            "latitude": "1.44623773350471",
            "longitude": "103.782971177683"
        },
        {
            "name": "Koufu ",
            "address": "Rivervale Plaza Rivervale Drive #2-61 Singapore 540118",
            "latitude": "1.38493202032928",
            "longitude": "103.901558027564"
        },
        {
            "name": "Koufu ",
            "address": "Sembawang Mart Canberra Road #1-1 Singapore 750511",
            "latitude": "1.45384518348657",
            "longitude": "103.819543348907"
        },
        {
            "name": "Koufu ",
            "address": "The Star Vista Vista Exchange Green #2-1 Singapore 138617",
            "latitude": "1.3068488176344",
            "longitude": "103.788214531337"
        },
        {
            "name": "Koufu ",
            "address": "Thomson Plaza Upper Thomson Road #1- Singapore 574408",
            "latitude": "1.35466901882051",
            "longitude": "103.83091978573"
        },
        {
            "name": "Koufu ",
            "address": " Toa Payoh Lorong 6 #2-59 Singapore 310500",
            "latitude": "1.33296549107728",
            "longitude": "103.847050355594"
        },
        {
            "name": "Koufu ",
            "address": "Woodlands Mart Woodlands Avenue 6 #1-22 Singapore 730768",
            "latitude": "1.44562289934866",
            "longitude": "103.798140996577"
        },
        {
            "name": "Koufu ",
            "address": "Woodlands Mart Woodlands Avenue 6 #1-K2 Singapore 730768",
            "latitude": "1.44562289934866",
            "longitude": "103.798140996577"
        },
        {
            "name": "Koufu ",
            "address": "Yew Tee Point Choa Chu Kang North #B1-24 Singapore 689578",
            "latitude": "1.39730190406932",
            "longitude": "103.746558072887"
        },
        {
            "name": "Koufu ",
            "address": "Square 2 10 Sinaran Drive #4-27 Singapore 307506",
            "latitude": "1.32042966145248",
            "longitude": "103.843892131406"
        },
        {
            "name": "LeNu ",
            "address": "Bugis Juction Victoria Street #B1- Singapore 188021",
            "latitude": "1.29911316126836",
            "longitude": "103.855411151136"
        },
        {
            "name": "LeNu ",
            "address": "Compass One Sengkang Square #3- Singapore 545078",
            "latitude": "1.39209415018227",
            "longitude": "103.894980032554"
        },
        {
            "name": "LeNu ",
            "address": "Vivo City Harbourfront Walk #2- Singapore 98585",
            "latitude": "1.2638958023183",
            "longitude": "103.821589254908"
        },
        {
            "name": "McDonald's ",
            "address": " Woodlands Avenue 6 #1-174 Singapore 731678",
            "latitude": "1.44041529803397",
            "longitude": "103.801489472558"
        },
        {
            "name": "McDonald's ",
            "address": "Alocassia Building Bukit Timah Road #1-K5 Singapore 259727",
            "latitude": "1.31943616797969",
            "longitude": "103.82734585139"
        },
        {
            "name": "McDonald's ",
            "address": "Big Mac Centre Ang Mo Kio Avenue 3 #1-10 Singapore 569922",
            "latitude": "1.36931517500022",
            "longitude": "103.847153933684"
        },
        {
            "name": "McDonald's ",
            "address": " Ang Mo Kio Avenue 4 #1-195 Singapore 560163",
            "latitude": "1.37355178419759",
            "longitude": "103.838168959464"
        },
        {
            "name": "McDonald's ",
            "address": " Ang Mo Kio Avenue 10 #1-151 Singapore 560448",
            "latitude": "1.36744190106637",
            "longitude": "103.85639660628"
        },
        {
            "name": "McDonald's ",
            "address": " Ang Mo Kio Street 12 #-347 Singapore 567740",
            "latitude": "1.37247443329906",
            "longitude": "103.844739982163"
        },
        {
            "name": "McDonald's ",
            "address": "Shaw Plaza (Balestier) Balestier Road #1-31 Singapore 329783",
            "latitude": "1.32512652659572",
            "longitude": "103.851055641727"
        },
        {
            "name": "McDonald's ",
            "address": "Beauty World Centre Upper Bukit Timah #1-1 Singapore 588177",
            "latitude": "1.34239284027459",
            "longitude": "103.776250531353"
        },
        {
            "name": "McDonald's ",
            "address": "Bedok Mall New Upper Changi Road #1-11 Singapore 467360",
            "latitude": "1.3247720681702",
            "longitude": "103.929267656464"
        },
        {
            "name": "McDonald's ",
            "address": "Bedok North Shopping Mall Bedok North Street 3 #1-11 Singapore 460539",
            "latitude": "1.33131386249995",
            "longitude": "103.925307293903"
        },
        {
            "name": "McDonald's ",
            "address": " Bedok Reservoir #1-22 Singapore 470744",
            "latitude": "1.33786041785122",
            "longitude": "103.92166331056"
        },
        {
            "name": "McDonald's ",
            "address": " Bedok Reservoir Road #1-2 Singapore 470632",
            "latitude": "1.33205094347947",
            "longitude": "103.914145082579"
        },
        {
            "name": "NTUC Foodfare ",
            "address": "Khoo Teck Puat Hospital (KTPH) Yishun Central #1-12 Singapore 768828",
            "latitude": "1.42387759833179",
            "longitude": "103.837853672353"
        },
        {
            "name": "NTUC Foodfare ",
            "address": "Marina Bay Financial Centre (MBFC) Marina Boulevard #1-1 Singapore 18982",
            "latitude": "1.27910566824917",
            "longitude": "103.854297426525"
        },
        {
            "name": "NTUC Foodfare ",
            "address": "Mapletree Business City Pasir Panjang Road #2-21 Singapore 117439",
            "latitude": "1.27482748253667",
            "longitude": "103.799064831461"
        },
        {
            "name": "NTUC Foodfare ",
            "address": " Choa Chu Kang Ave 4 #1-723 Singapore 680303",
            "latitude": "1.38454839202587",
            "longitude": "103.743795770765"
        },
        {
            "name": "NTUC Foodfare ",
            "address": "The Seletar Mall Sengkang West Avenue #3-37 Singapore 797653",
            "latitude": "1.39139305815613",
            "longitude": "103.876067657689"
        },
        {
            "name": "NTUC Foodfare ",
            "address": "Sembawang MRT Station Canberra Road #1-5 Singapore 759775",
            "latitude": "1.44905081580218",
            "longitude": "103.820046146839"
        },
        {
            "name": "Kopitiam ",
            "address": "Jcube Jurong East Central 1 #B1-10 Singapore 609731",
            "latitude": "1.33326818684719",
            "longitude": "103.740176740726"
        },
        {
            "name": "FEAST ",
            "address": "Jurong Point Jurong West Central 2 #3-15 Singapore 648331",
            "latitude": "1.33936402101721",
            "longitude": "103.705308192584"
        },
        {
            "name": "Cantine @ Jurong Point",
            "address": "Jurong Point Jurong West Central 2 #B1-14 Singapore 648886",
            "latitude": "1.33983015257941",
            "longitude": "103.70646088413"
        },
        {
            "name": "Kopitiam ",
            "address": "KK Women's and Children's Hospital (KKH) Bukit Timah Road #1-49 Singapore 229899",
            "latitude": "1.31044852709848",
            "longitude": "103.84665008136"
        },
        {
            "name": "Kopitiam ",
            "address": "Ng Teng Fong General Hospital Tower B Jurong East Street 21 #2-50 Singapore 609606",
            "latitude": "1.33553381915144",
            "longitude": "103.743865454971"
        },
        {
            "name": "Kopitiam ",
            "address": "Novena Square Thomson Road #3-17 Singapore 307683",
            "latitude": "1.32021099973819",
            "longitude": "103.843656770909"
        },
        {
            "name": "Kopitiam ",
            "address": "National University Hospital (NUH), Main Building Lobby Lower Kent Ridge Road #1-53 Singapore 119074",
            "latitude": "1.29395305386479",
            "longitude": "103.782709521206"
        },
        {
            "name": "Kopitiam ",
            "address": "Plaza Singapura 68 Orchard road #6-104 Singapore 238839",
            "latitude": "1.3007475429726",
            "longitude": "103.845047622213"
        },
        {
            "name": "Kopitiam ",
            "address": "Housemen's Canteen College Road #1-40 Singapore 169851",
            "latitude": "1.28178340310202",
            "longitude": "103.834870636767"
        },
        {
            "name": "Kopitiam ",
            "address": "Singapore General Hospital (SGH) Outram Road #1-K1 Singapore 169608",
            "latitude": "1.27993968247",
            "longitude": "103.830721777631"
        },
        {
            "name": "Kopitiam ",
            "address": "Sun Plaza Sembawang Drive #-47 Singapore 757713",
            "latitude": "1.44822653184261",
            "longitude": "103.819462104528"
        },
        {
            "name": "Kopitiam ",
            "address": "Suntec City, Tower 3 Temasek Boulevard #3-40 Singapore 38983",
            "latitude": "1.29487904117327",
            "longitude": "103.857675497949"
        },
        {
            "name": "Kopitiam ",
            "address": "Tampines 1 Tampines Central 1 #5-312 Singapore 529536",
            "latitude": "1.35431555986081",
            "longitude": "103.945019461564"
        },
        {
            "name": "Kopitiam ",
            "address": "Tampines Mall Tampines Central 5 #-9 Singapore 529510",
            "latitude": "1.35267231590699",
            "longitude": "103.944387987324"
        },
        {
            "name": "Kopitiam ",
            "address": "Changi Airport Terminal 3 Airport Boulevard, Changi Airport Terminal 2 #B2-30 Singapore 819663",
            "latitude": "1.35437073617361",
            "longitude": "103.985169653268"
        },
        {
            "name": "Kopitiam ",
            "address": "Tiong Bahru Plaza Tiong Bahru Road #3-57 Singapore 168732",
            "latitude": "1.28646345318687",
            "longitude": "103.826935084287"
        },
        {
            "name": "Kopitiam ",
            "address": "Tan Tock Seng Hospital (TTSH) Jalan Tan Tock Seng #1-37 Singapore 308433",
            "latitude": "1.32171597672812",
            "longitude": "103.845389014275"
        },
        {
            "name": "Kopitiam ",
            "address": "V Hotel Jellicoe Road #1- Singapore 208767",
            "latitude": "1.30780927471219",
            "longitude": "103.862525582449"
        },
        {
            "name": "Kopitiam ",
            "address": "Vivo City Harbourfront Walk #B2- Singapore 98585",
            "latitude": "1.2638958023183",
            "longitude": "103.821589254908"
        },
        {
            "name": "Kopitiam ",
            "address": "Yishun Community Hospital Yishun Central 2 #- Singapore 768024",
            "latitude": "1.4237674551724",
            "longitude": "103.837242219706"
        },
        {
            "name": "Kopitiam ",
            "address": "North Point Shopping Centre No. 930 Yishun Avenue 2 #B2- Singapore 768098",
            "latitude": "1.43834696560297",
            "longitude": "103.831710034886"
        },
        {
            "name": "Kopitiam ",
            "address": "Changi Airport Terminal 2 60 Airport Boulevard #3M- Singapore 819643",
            "latitude": "1.35519094047222",
            "longitude": "103.98875098125"
        },
        {
            "name": "Kopitiam ",
            "address": "Compass One 1 Sengkang Drive #4-156 Singapore 545078",
            "latitude": "1.39209415018227",
            "longitude": "103.894980032554"
        },
        {
            "name": "Kopitiam ",
            "address": "Rivervale Plaza Rivervale Drive #2-158 Singapore 540118",
            "latitude": "1.38493202032928",
            "longitude": "103.901558027564"
        },
        {
            "name": "McDonald's ",
            "address": "Clementi Bus Interchange Commonwealth Avenue West #1-39 Singapore 120441",
            "latitude": "1.31498918492549",
            "longitude": "103.764128911366"
        },
        {
            "name": "McDonald's ",
            "address": "Clifford Centre Raffles Place #B1-111 Singapore 48621",
            "latitude": "1.28385698132703",
            "longitude": "103.852128172968"
        },
        {
            "name": "McDonald's ",
            "address": "Compass One Sengkang Square #B1-15 Singapore 545078",
            "latitude": "1.39209415018227",
            "longitude": "103.894980032554"
        },
        {
            "name": "McDonald's ",
            "address": "EHUB,Downtown East Pasir Ris Close #1-57 Singapore 519599",
            "latitude": "1.37714073427961",
            "longitude": "103.953599086806"
        },
        {
            "name": "McDonald's ",
            "address": "Eastpoint mall Simei Street 6 #1-34 Singapore 528833",
            "latitude": "1.34270618643901",
            "longitude": "103.953024503826"
        },
        {
            "name": "McDonald's ",
            "address": "Elias Community Centre Pasir Ris Drive 3 #1-2 Singapore 519498",
            "latitude": "1.37842943699246",
            "longitude": "103.942476405496"
        },
        {
            "name": "McDonald's ",
            "address": "Fajar Shopping Centre Fajar Road #1-520 Singapore 670445",
            "latitude": "1.38358044141428",
            "longitude": "103.770768312339"
        },
        {
            "name": "McDonald's ",
            "address": "Serene Centre Jalan Serene Serene Centre #1-1 Singapore 258748",
            "latitude": "1.32259059692345",
            "longitude": "103.813696296546"
        },
        {
            "name": "McDonald's ",
            "address": "Forum Galleria Orchard Road #B1-25 Singapore 238884",
            "latitude": "1.3061957946135",
            "longitude": "103.8285090172"
        },
        {
            "name": "McDonald's ",
            "address": "Gardens By The Bay Marina Gardens Drive #2-4 Singapore 18953",
            "latitude": "1.28129719795262",
            "longitude": "103.861149753623"
        },
        {
            "name": "McDonald's ",
            "address": "Gek Poh Shopping Mall Jurong West Street 75 #2-250 Singapore 640762",
            "latitude": "1.34874357157007",
            "longitude": "103.697732094254"
        },
        {
            "name": "McDonald's ",
            "address": " Aljunied Avenue 2 #1-1 Singapore 380113",
            "latitude": "1.32052595673156",
            "longitude": "103.886159307862"
        },
        {
            "name": "McDonald's ",
            "address": "Great World City Kim Seng Promenade #1-24 Singapore 237994",
            "latitude": "1.29380234644512",
            "longitude": "103.83175791999"
        },
        {
            "name": "McDonald's ",
            "address": "Harbourfront Centre Maritime Square #1-87 Singapore 99253",
            "latitude": "1.26206336360052",
            "longitude": "103.818625592652"
        },
        {
            "name": "McDonald's ",
            "address": "Hillion Mall Petir Road #B1-25 Singapore 678278",
            "latitude": "1.37834971260865",
            "longitude": "103.76274117629"
        },
        {
            "name": "McDonald's ",
            "address": "Kovan City Hougang Street 21 #1-217 Singapore 530208",
            "latitude": "1.35869679740232",
            "longitude": "103.886636111849"
        },
        {
            "name": "McDonald's ",
            "address": "Hougang 1 Shopping Mall Hougang Street 91 #1-26 Singapore 538692",
            "latitude": "1.37566727990659",
            "longitude": "103.879450257387"
        },
        {
            "name": "McDonald's ",
            "address": " Hougang Avenue 8 #1-999 Singapore 530684",
            "latitude": "1.37395840291964",
            "longitude": "103.886898460897"
        },
        {
            "name": "McDonald's ",
            "address": "Hougang (Shell) Hougang Avenue 3 #1-1 Singapore 538846",
            "latitude": "1.34925376630689",
            "longitude": "103.890144126594"
        },
        {
            "name": "McDonald's ",
            "address": "Hougang Mall Hougang Avenue 10 #1-17 Singapore 538766",
            "latitude": "1.37231185642959",
            "longitude": "103.89366161203"
        },
        {
            "name": "McDonald's ",
            "address": "Beach Station @ Sentosa Siloso Beach Walk #1-4 Singapore 99010",
            "latitude": "1.25200580026937",
            "longitude": "103.817554221282"
        },
        {
            "name": "McDonald's ",
            "address": "SCAPE Orchard Link #2-43 Singapore 237978",
            "latitude": "1.30086543417456",
            "longitude": "103.835700848396"
        },
        {
            "name": "McDonald's ",
            "address": "The Seletar Mall Sengkang West Avenue #1-4 Singapore 797653",
            "latitude": "1.39139305815613",
            "longitude": "103.876067657689"
        },
        {
            "name": "McDonald's ",
            "address": "Rivervale Plaza Rivervale Drive #1-32 Singapore 540118",
            "latitude": "1.38493202032928",
            "longitude": "103.901558027564"
        },
        {
            "name": "McDonald's ",
            "address": "Sengkang Sports & Recreation Centre Anchorvale Road #2-3 Singapore 544964",
            "latitude": "1.39550158699169",
            "longitude": "103.885784248377"
        },
        {
            "name": "McDonald's ",
            "address": " Serangoon Avenue 3 #1-37 Singapore 550267",
            "latitude": "1.35317007436952",
            "longitude": "103.870954393835"
        },
        {
            "name": "McDonald's ",
            "address": "Siglap Centre Siglap Road #1-7 Singapore 455871",
            "latitude": "1.31260565034731",
            "longitude": "103.923168090089"
        },
        {
            "name": "McDonald's ",
            "address": "Singapore Polytechnic Dover Road #1-13 Singapore 139651",
            "latitude": "1.31123994786285",
            "longitude": "103.774471404046"
        },
        {
            "name": "McDonald's ",
            "address": "Singapore Science Centre Science Centre Road #- Singapore 609081",
            "latitude": "1.33322732339988",
            "longitude": "103.735660022862"
        },
        {
            "name": "McDonald's ",
            "address": "SpringLeaf Tower Anson Road #1-3 Singapore 79909",
            "latitude": "1.27508474969094",
            "longitude": "103.846246292598"
        },
        {
            "name": "McDonald's ",
            "address": "Sun Plaza Sembawang Drive #1-19 Singapore 757713",
            "latitude": "1.44822653184261",
            "longitude": "103.819462104528"
        },
        {
            "name": "McDonald's ",
            "address": "Suntec City mall Temasek Boulevard #2-732 Singapore 38983",
            "latitude": "1.29487904117327",
            "longitude": "103.857675497949"
        },
        {
            "name": "McDonald's ",
            "address": "DBS Tampines Central Branch (POSB) Tampines Central 1 #1-150 Singapore 520513",
            "latitude": "1.35391812400841",
            "longitude": "103.944395756351"
        },
        {
            "name": "McDonald's ",
            "address": " Tampines Central 1 #1-512A Singapore 520512",
            "latitude": "1.35397684434497",
            "longitude": "103.943250563185"
        },
        {
            "name": "McDonald's ",
            "address": "Tampines East Community Complex Tampines Street 23 #1-1 Singapore 529341",
            "latitude": "1.35335682593432",
            "longitude": "103.954620461629"
        },
        {
            "name": "McDonald's ",
            "address": "Tampines Mall Tampines Central 5 #1-33 Singapore 529510",
            "latitude": "1.35267231590699",
            "longitude": "103.944387987324"
        },
        {
            "name": "McDonald's ",
            "address": "Tampines Mart Tampines Street 32 #1-1 Singapore 529284",
            "latitude": "1.35436981239791",
            "longitude": "103.95990645157"
        },
        {
            "name": "McDonald's ",
            "address": "Tampiness Shell Tampines Avenue 2 #1-2 Singapore 529731",
            "latitude": "1.3492087748244",
            "longitude": "103.947630246967"
        },
        {
            "name": "McDonald's ",
            "address": "Tampines West Community Complex Tampines Avenue 3 #1-7 Singapore 529705",
            "latitude": "1.34875076398822",
            "longitude": "103.935633408895"
        },
        {
            "name": "McDonald's ",
            "address": "Temasek Polytechnic Tampines Avenue 1 #- Singapore 529757",
            "latitude": "1.34793947802841",
            "longitude": "103.928839989349"
        },
        {
            "name": "McDonald's ",
            "address": "The Metropolis North Buona Vista Drive #1-8 Singapore 138588",
            "latitude": "1.30624556255115",
            "longitude": "103.791237459856"
        },
        {
            "name": "McDonald's ",
            "address": "Tiong Bahru Plaza Tiong Bahru Road #1-145 Singapore 168732",
            "latitude": "1.28646345318687",
            "longitude": "103.826935084287"
        },
        {
            "name": "McDonald's ",
            "address": "600@Toa Payoh Toa Payoh Lorong 4 #1-2 Singapore 319515",
            "latitude": "1.33404170687325",
            "longitude": "103.850955464061"
        },
        {
            "name": "McDonald's ",
            "address": "HDB Hub Toa Payoh Toa Payoh Lorong 6 #1-11 Singapore 310490",
            "latitude": "1.33257175025821",
            "longitude": "103.84805260799"
        },
        {
            "name": "McDonald's ",
            "address": "IMM Jurong East Street 21 #1-18 Singapore 609601",
            "latitude": "1.33489843717477",
            "longitude": "103.7467344968"
        },
        {
            "name": "McDonald's ",
            "address": "Jcube Jurong East Central 1 #1-9 Singapore 609731",
            "latitude": "1.33326818684719",
            "longitude": "103.740176740726"
        },
        {
            "name": "McDonald's ",
            "address": " Jurong Gateway Road #1-63 Singapore 608549",
            "latitude": "1.33320021038331",
            "longitude": "103.743170436293"
        },
        {
            "name": "McDonald's ",
            "address": "FairPrice Hub Joo Koon Circle #1-27 Singapore 629117",
            "latitude": "1.32460664648867",
            "longitude": "103.678096364228"
        },
        {
            "name": "McDonald's ",
            "address": "Junction 8 Bishan Place #1-20 Singapore 579837",
            "latitude": "1.35023942729659",
            "longitude": "103.848477635059"
        },
        {
            "name": "McDonald's ",
            "address": "SuperBowl Jurong Yuan Ching Road #- Singapore 618640",
            "latitude": "1.32592599474027",
            "longitude": "103.724483286101"
        },
        {
            "name": "McDonald's ",
            "address": " Boon Lay Way #- Singapore 649849",
            "latitude": "1.33917483114621",
            "longitude": "103.708655593626"
        },
        {
            "name": "McDonald's ",
            "address": " Jurong East Street 24 #1-38 Singapore 600256",
            "latitude": "1.34423597841622",
            "longitude": "103.738257565754"
        },
        {
            "name": "McDonald's ",
            "address": "Jurong Spring Community Centre Jurong West Avenue 1 #- Singapore 649520",
            "latitude": "1.35055603170357",
            "longitude": "103.725341556777"
        },
        {
            "name": "McDonald's ",
            "address": "Jurong Point Jurong West Central 2 #1-31 Singapore 648886",
            "latitude": "1.33983015257941",
            "longitude": "103.70646088413"
        },
        {
            "name": "McDonald's ",
            "address": "Jurong Spring Community Centre Jurong West Street 52 #1-5 Singapore 649296",
            "latitude": "1.34833016917295",
            "longitude": "103.718155703267"
        },
        {
            "name": "McDonald's ",
            "address": " Stadium Road #- Singapore 397801",
            "latitude": "1.30523370691918",
            "longitude": "103.881918209468"
        },
        {
            "name": "McDonald's ",
            "address": "Keat Hong Choa Chu Kang Avenue 1 #1-2 Singapore 680818",
            "latitude": "1.37802616114923",
            "longitude": "103.748826773909"
        },
        {
            "name": "McDonald's ",
            "address": " Yishun Ring Road #1-3669 Singapore 760846",
            "latitude": "1.41676014281214",
            "longitude": "103.834594977147"
        },
        {
            "name": "McDonald's ",
            "address": "KK Women's and Children's Hospital (KKH) Bukit Timah Road #1-33 Singapore 229899",
            "latitude": "1.31044852709848",
            "longitude": "103.84665008136"
        },
        {
            "name": "McDonald's ",
            "address": "Liang Court River Valley Road #1-01 Singapore 179030",
            "latitude": "1.29149019698803",
            "longitude": "103.844668942167"
        },
        {
            "name": "McDonald's ",
            "address": "Loyang Point Pasir Ris Street 21 #1-323 Singapore 510258",
            "latitude": "1.36700053783377",
            "longitude": "103.964617781926"
        },
        {
            "name": "McDonald's ",
            "address": "Lucky Chinatown New Bridge Road #1-10 Singapore 59432",
            "latitude": "1.28365310601513",
            "longitude": "103.843309608147"
        },
        {
            "name": "McDonald's ",
            "address": "Lucky Plaza Orchard Road #B1-19 Singapore 238863",
            "latitude": "1.30448579103268",
            "longitude": "103.833941937816"
        },
        {
            "name": "McDonald's ",
            "address": "Lucky Plaza Orchard Road #B1-19 Singapore 238863",
            "latitude": "1.30448579103268",
            "longitude": "103.833941937816"
        },
        {
            "name": "McDonald's ",
            "address": "Marina Square Raffles Boulevard #2-156 Singapore 39594",
            "latitude": "1.29145525906521",
            "longitude": "103.857007341008"
        },
        {
            "name": "McDonald's ",
            "address": "Marine Cove East Coast Parkway #1-449876 Singapore 449876",
            "latitude": "1.30143328063999",
            "longitude": "103.912911307753"
        },
        {
            "name": "McDonald's ",
            "address": "Nanyang Technological University (NTU), Blk N2.1 Nanyang Drive #1-8 Singapore 637331",
            "latitude": "1.34713043824892",
            "longitude": "103.680033820175"
        },
        {
            "name": "McDonald's ",
            "address": "NUS, Lee Kong Chian Natural History Museum Estate Office Drive #- Singapore 119077",
            "latitude": "1.30132730954797",
            "longitude": "103.774277259655"
        },
        {
            "name": "McDonald's ",
            "address": "NEX Serangoon Central #B2-05 Singapore 556083",
            "latitude": "1.35043817177432",
            "longitude": "103.87170454945"
        },
        {
            "name": "McDonald's ",
            "address": "KH KEA Building North Bridge Road #1- Singapore 188721",
            "latitude": "1.29613873341912",
            "longitude": "103.853609536466"
        },
        {
            "name": "McDonald's ",
            "address": "North Point Shopping Centre Yishun Avenue 2 #1-1 Singapore 769098",
            "latitude": "1.42969847969485",
            "longitude": "103.835776496688"
        },
        {
            "name": "McDonald's ",
            "address": "Parklane Shopping Mall Seletar Road #B1-38 Singapore 188307",
            "latitude": "1.30065102287538",
            "longitude": "103.849441981412"
        },
        {
            "name": "Capri by Fraser Caprilicious,Delite ",
            "address": "Changi Business Park Changi Business Park Central 1 #-108 Singapore 486037",
            "latitude": "1.3342655648281",
            "longitude": "103.963583777969"
        },
        {
            "name": "Chargrill Bar ",
            "address": " Ang Mo Kio Avenue 10 #1- Singapore 560407",
            "latitude": "1.36191347168136",
            "longitude": "103.855247675955"
        },
        {
            "name": "Chargrill Bar ",
            "address": " Bedok North Street 4 #1- Singapore 460088",
            "latitude": "1.33313335141957",
            "longitude": "103.93911091838"
        },
        {
            "name": "Chargrill Bar ",
            "address": " Bishan Street 24 #1-1 Singapore 570280",
            "latitude": "1.35742118848515",
            "longitude": "103.844275796636"
        },
        {
            "name": "Chargrill Bar ",
            "address": " Bukit Batok Street 11 #1- Singapore 650155",
            "latitude": "1.3479130299555",
            "longitude": "103.743495452206"
        },
        {
            "name": "Chargrill Bar ",
            "address": " Bukit Batok Street 34 #1- Singapore 650347",
            "latitude": "1.36227034023359",
            "longitude": "103.75119294815"
        },
        {
            "name": "Chargrill Bar ",
            "address": " Bukit Batok East Ave 4 #1-6 Singapore 650273",
            "latitude": "1.34842264501772",
            "longitude": "103.757579235851"
        },
        {
            "name": "Chargrill Bar ",
            "address": " Bukit Panjang Ring Road #1-141A Singapore 671259",
            "latitude": "1.37727544742532",
            "longitude": "103.773096818985"
        },
        {
            "name": "Chargrill Bar ",
            "address": " Canberra Link #1-7 Singapore 750505",
            "latitude": "1.45026201350514",
            "longitude": "103.822534723204"
        },
        {
            "name": "Chargrill Bar ",
            "address": " Choa Chu Kang Crescent #1-4 Singapore 682673",
            "latitude": "1.4009153293371",
            "longitude": "103.747961179569"
        },
        {
            "name": "Chargrill Bar ",
            "address": " Clementi Ave 3 #1-27 Singapore 120442",
            "latitude": "1.31412253918369",
            "longitude": "103.764518603743"
        },
        {
            "name": "Chargrill Bar ",
            "address": " Clementi West Street 2 #1-10 Singapore 120727",
            "latitude": "1.30434542247938",
            "longitude": "103.763393661738"
        },
        {
            "name": "Chargrill Bar ",
            "address": "Kovan City Hougang Street 21 #1-K7 Singapore 530203",
            "latitude": "1.35816293300064",
            "longitude": "103.884400276495"
        },
        {
            "name": "Chargrill Bar ",
            "address": " Hougang Ave 8 #1-39 Singapore 530681",
            "latitude": "1.37311062518506",
            "longitude": "103.885636629702"
        },
        {
            "name": "Chargrill Bar ",
            "address": " Jalan Membina #1-40 Singapore 161026",
            "latitude": "1.2826343702548",
            "longitude": "103.825595760467"
        },
        {
            "name": "Chargrill Bar ",
            "address": " Jurong Gateway Road #1-55 Singapore 600132",
            "latitude": "1.33431017547325",
            "longitude": "103.739636652255"
        },
        {
            "name": "Chargrill Bar ",
            "address": " Jurong West Avenue 1 #1-1 Singapore 640491",
            "latitude": "1.34958656008753",
            "longitude": "103.72631532639"
        },
        {
            "name": "Chargrill Bar ",
            "address": " Lorong Liput #-546 Singapore 277744",
            "latitude": "1.31074117393728",
            "longitude": "103.794934522448"
        },
        {
            "name": "Chargrill Bar ",
            "address": " Marina Parade Central #1-3 Singapore 440080",
            "latitude": "1.30248201886186",
            "longitude": "103.907738800314"
        },
        {
            "name": "Chargrill Bar ",
            "address": " Owen Road #1-8 Singapore 210046",
            "latitude": "1.31514019612727",
            "longitude": "103.850798372662"
        },
        {
            "name": "Chargrill Bar ",
            "address": " Pasir Ris Drive 6 #1-40 Singapore 510443",
            "latitude": "1.36949284240389",
            "longitude": "103.957348089003"
        },
        {
            "name": "Chargrill Bar ",
            "address": " Sembawang Drive #1-14 Singapore 750463",
            "latitude": "1.4555120818615",
            "longitude": "103.814540292447"
        },
        {
            "name": "Chargrill Bar ",
            "address": " Serangoon Central Drive #1-4 Singapore 550261",
            "latitude": "1.3538803223748",
            "longitude": "103.872366669232"
        },
        {
            "name": "Chargrill Bar ",
            "address": " Serangoon North Ave 1 #1-16F Singapore 550107",
            "latitude": "1.36990039124635",
            "longitude": "103.870224889283"
        },
        {
            "name": "Hot Tomato ",
            "address": "Bedok Mall New Upper Changi Road #B1-10 Singapore 467360",
            "latitude": "1.3247720681702",
            "longitude": "103.929267656464"
        },
        {
            "name": "Hot Tomato ",
            "address": "Causeway Point Woodlands Square #2-2 Singapore 738099",
            "latitude": "1.43600784517148",
            "longitude": "103.785688739235"
        },
        {
            "name": "Hot Tomato ",
            "address": "NEX Serangoon Central #B1-8 Singapore 556083",
            "latitude": "1.35043817177432",
            "longitude": "103.87170454945"
        },
        {
            "name": "Hot Tomato ",
            "address": "Plaza Singapura Orchard Road #B2-31 Singapore 238839",
            "latitude": "1.3007475429726",
            "longitude": "103.845047622213"
        },
        {
            "name": "Hot Tomato ",
            "address": "Jurong Point Jurong West Central 2 #3-379 Singapore 648886",
            "latitude": "1.33983015257941",
            "longitude": "103.70646088413"
        },
        {
            "name": "Hot Tomato ",
            "address": "Westgate Gateway Drive #B1-11 Singapore 608532",
            "latitude": "1.33402528745454",
            "longitude": "103.742586017746"
        },
        {
            "name": "Hot Tomato ",
            "address": "JEWEL Changi Airport 78 Airport Boulevard #4-7 Singapore 819666",
            "latitude": "1.36034099671656",
            "longitude": "103.989077555194"
        },
        {
            "name": "Hot Tomato ",
            "address": "Paya Lebar Quarter 10 Paya Lebar Road #4-20 Singapore 409057",
            "latitude": "1.31752384126856",
            "longitude": "103.892724434212"
        },
        {
            "name": "Jack's Place ",
            "address": "Anchorpoint Alexandra Road #1-K9 Singapore 159953",
            "latitude": "1.28861468740198",
            "longitude": "103.805009965174"
        },
        {
            "name": "Jack's Place ",
            "address": " Ang Mo Kio Ave 6 #-155 Singapore 560730",
            "latitude": "1.37343368369215",
            "longitude": "103.845765158161"
        },
        {
            "name": "Jack's Place ",
            "address": "Bras Basah Complex Bain Street #1-3661 Singapore 180231",
            "latitude": "1.29701305043941",
            "longitude": "103.853525798232"
        },
        {
            "name": "Jack's Place ",
            "address": "Compass One Sengkang Square #4-111 Singapore 545078",
            "latitude": "1.39209415018227",
            "longitude": "103.894980032554"
        },
        {
            "name": "Jack's Place ",
            "address": "Orchard Central Orchard Road #B1-K9 Singapore 238896",
            "latitude": "1.30083890737163",
            "longitude": "103.839434743513"
        },
        {
            "name": "Jack's Place ",
            "address": "JEM Jurong Gateway Road #4-208 Singapore 608549",
            "latitude": "1.33320021038331",
            "longitude": "103.743170436293"
        },
        {
            "name": "Jack's Place ",
            "address": "NEX Serangoon Central #4-10 Singapore 556083",
            "latitude": "1.35043817177432",
            "longitude": "103.87170454945"
        },
        {
            "name": "Jack's Place ",
            "address": "Orange Tee Toa Payoh Lorong 6 #1-25 Singapore 319402",
            "latitude": "1.3313978233317",
            "longitude": "103.849389457685"
        },
        {
            "name": "Jack's Place ",
            "address": "Parkway Parade Marine Parade Road #1-14 Singapore 449269",
            "latitude": "1.30119130748691",
            "longitude": "103.905113592255"
        },
        {
            "name": "Jack's Place ",
            "address": " Sentul Crescent #1- Singapore 828654",
            "latitude": "1.41011328238339",
            "longitude": "103.906031928713"
        },
        {
            "name": "Jack's Place ",
            "address": "Safra Club (Jurong) Boon Lay Way #2A-328 Singapore 649848",
            "latitude": "1.33500721695143",
            "longitude": "103.706278740337"
        },
        {
            "name": "Jack's Place ",
            "address": " West Coast Walk #1-26 Singapore 127157",
            "latitude": "1.30955137866001",
            "longitude": "103.763837327524"
        },
        {
            "name": "Jack's Place ",
            "address": "Woodlands Civic Centre South Woodlands Drive #2-21 Singapore 730900",
            "latitude": "1.43507788583775",
            "longitude": "103.786619621971"
        },
        {
            "name": "Jack's Place ",
            "address": "JEWEL Changi Airport Aiport Boulevard #4-K01A Singapore 819666",
            "latitude": "1.36034099671656",
            "longitude": "103.989077555194"
        },
        {
            "name": "Kampong Group ",
            "address": " Bukit Merah Central #-1 Singapore 159837",
            "latitude": "1.28205539261324",
            "longitude": "103.818078221778"
        },
        {
            "name": "Kampong Group ",
            "address": " Jalan Besar #-K30 Singapore 208827",
            "latitude": "1.30617278167205",
            "longitude": "103.855993659816"
        },
        {
            "name": "Chargrill Bar ",
            "address": " Sixth Avenue #1-4 Singapore 276474",
            "latitude": "1.33121182683306",
            "longitude": "103.794825430818"
        },
        {
            "name": "Chargrill Bar ",
            "address": " Upper Changi Road #1-3 Singapore 461059",
            "latitude": "1.32405898456492",
            "longitude": "103.940695613272"
        },
        {
            "name": "Chargrill Bar ",
            "address": " Yishun Ave 11 #1-K1 Singapore 760417",
            "latitude": "1.42442095139243",
            "longitude": "103.846284491372"
        },
        {
            "name": "Chargrill Bar ",
            "address": " Woodlands Street 11 #1-5 Singapore 730167",
            "latitude": "1.43359369631184",
            "longitude": "103.77588406067"
        },
        {
            "name": "Dian Xiao Er ",
            "address": "Bedok Mall New Upper Changi Road #1-K1 Singapore 467360",
            "latitude": "1.3247720681702",
            "longitude": "103.929267656464"
        },
        {
            "name": "Dian Xiao Er ",
            "address": " Petir Road #1-2A Singapore 678270",
            "latitude": "1.37843100797128",
            "longitude": "103.762842797099"
        },
        {
            "name": "Dian Xiao Er ",
            "address": "JEM Jurong Gateway Road #3-K5 Singapore 608549",
            "latitude": "1.33320021038331",
            "longitude": "103.743170436293"
        },
        {
            "name": "Dian Xiao Er ",
            "address": "Junction 8 Bishan Place #B1-K16 Singapore 579837",
            "latitude": "1.35023942729659",
            "longitude": "103.848477635059"
        },
        {
            "name": "Dian Xiao Er ",
            "address": "Jurong Point Jurong West Central 2 #3-12A Singapore 648331",
            "latitude": "1.33936402101721",
            "longitude": "103.705308192584"
        },
        {
            "name": "Dian Xiao Er ",
            "address": "Lot One Choa Chu Kang Avenue 4 #B1-41 Singapore 689812",
            "latitude": "1.38506835667563",
            "longitude": "103.744950384161"
        },
        {
            "name": "Dian Xiao Er ",
            "address": "Marina Square Marina Way #2-23 Singapore 39594",
            "latitude": "1.29145525906521",
            "longitude": "103.857007341008"
        },
        {
            "name": "Dian Xiao Er ",
            "address": "NEX Serangoon Central #2-8 Singapore 556083",
            "latitude": "1.35043817177432",
            "longitude": "103.87170454945"
        },
        {
            "name": "Dian Xiao Er ",
            "address": "Changi Airport Terminal 3 Airport Boulevard, Changi Airport Terminal 3 #3-K6 Singapore 819663",
            "latitude": "1.35437073617361",
            "longitude": "103.985169653268"
        },
        {
            "name": "Dian Xiao Er ",
            "address": "Vivo City Harbourfront Walk #2-54 Singapore 98585",
            "latitude": "1.2638958023183",
            "longitude": "103.821589254908"
        },
        {
            "name": "Dome ",
            "address": "Dempsey Hill Dempsey Road #1-8 Singapore 249673",
            "latitude": "1.30411979542211",
            "longitude": "103.810112609025"
        },
        {
            "name": "Dome ",
            "address": "IMM Jurong East street 21 #2-K12 Singapore 609601",
            "latitude": "1.33489843717477",
            "longitude": "103.7467344968"
        },
        {
            "name": "Dome ",
            "address": "Parkway Parade Marine Parade Road #1-13 Singapore 449269",
            "latitude": "1.30119130748691",
            "longitude": "103.905113592255"
        },
        {
            "name": "Dome ",
            "address": "Isetan Scotts Shaw House Orchard Road #4-30 Singapore 238868",
            "latitude": "1.30580978407383",
            "longitude": "103.831507357191"
        },
        {
            "name": "Dome ",
            "address": "UOB Plaza 1 Raffles place #1-29 Singapore 48624",
            "latitude": "1.2855739674355",
            "longitude": "103.85024637071"
        },
        {
            "name": "Earle Swensen ",
            "address": " Gateway Drive #3- Singapore 608532",
            "latitude": "1.33402528745454",
            "longitude": "103.742586017746"
        },
        {
            "name": "Earle Swensen ",
            "address": "Vivo City Harbourfront Walk #2-7A Singapore 98585",
            "latitude": "1.2638958023183",
            "longitude": "103.821589254908"
        },
        {
            "name": "Fish & Co ",
            "address": "AMK Hub Ang Mo Kio Avenue 3 #2-21 Singapore 569933",
            "latitude": "1.36924891282021",
            "longitude": "103.848399227484"
        },
        {
            "name": "Fish & Co ",
            "address": "Changi Airport Terminal 2 Airport Boulevard, Changi Airport Terminal 2 #36-4 Singapore 819643",
            "latitude": "1.35519094047222",
            "longitude": "103.98875098125"
        },
        {
            "name": "Fish & Co ",
            "address": "Clementi Mall Commonwealth Avenue West #4-13 Singapore 129588",
            "latitude": "1.31485321802259",
            "longitude": "103.764248205662"
        },
        {
            "name": "Fish & Co ",
            "address": "Jurong Point Jurong West Central 2 #3-K2 Singapore 648886",
            "latitude": "1.33983015257941",
            "longitude": "103.70646088413"
        },
        {
            "name": "Fish & Co ",
            "address": "Vivo City Keppel Bay Drive #2-71 Singapore 98585",
            "latitude": "1.2638958023183",
            "longitude": "103.821589254908"
        },
        {
            "name": "Fish & Co ",
            "address": "NEX Serangoon Central #B1-7 Singapore 556083",
            "latitude": "1.35043817177432",
            "longitude": "103.87170454945"
        },
        {
            "name": "Fish & Co ",
            "address": "Novena Square Thomson Road #3-10 Singapore 307683",
            "latitude": "1.32021099973819",
            "longitude": "103.843656770909"
        },
        {
            "name": "Fish & Co ",
            "address": "Paragon Orchard Road #B1-6 Singapore 238859",
            "latitude": "1.30372321372467",
            "longitude": "103.835240310126"
        },
        {
            "name": "Fish & Co ",
            "address": "Sun Plaza Sembwang Road #3-39 Singapore 757713",
            "latitude": "1.44822653184261",
            "longitude": "103.819462104528"
        },
        {
            "name": "Fish & Co ",
            "address": "Tampines One Tampines Central 1 #4-9 Singapore 529537",
            "latitude": "1.35431555986081",
            "longitude": "103.945019461564"
        },
        {
            "name": "Fish & Co ",
            "address": "Bugis Junction Victoria Street #4-536 Singapore 188067",
            "latitude": "1.29966015870599",
            "longitude": "103.853518086357"
        },
        {
            "name": "Fish & Co ",
            "address": "The Seletar Mall Sengkang West Avenue #3-26 Singapore 797653",
            "latitude": "1.39139305815613",
            "longitude": "103.876067657689"
        },
        {
            "name": "Fish & Co ",
            "address": "Waterway point Punggol Central #B1-18A Singapore 828761",
            "latitude": "1.40653610720599",
            "longitude": "103.901988174009"
        },
        {
            "name": "Formosa Delight ",
            "address": "112 Katong East Coast Road #4-66 Singapore 428802",
            "latitude": "1.30522305583341",
            "longitude": "103.905043934283"
        },
        {
            "name": "Formosa Delight ",
            "address": "313 @ Somerset Orchard Road #5-172 Singapore 238895",
            "latitude": "1.30138509490104",
            "longitude": "103.837684358423"
        },
        {
            "name": "Formosa Delight ",
            "address": "Bugis Junction Victoria Stree #3-20 Singapore 188021",
            "latitude": "1.29911316126836",
            "longitude": "103.855411151136"
        },
        {
            "name": "Formosa Delight ",
            "address": "Causeway Point Woodlands Square #4-27 Singapore 738099",
            "latitude": "1.43600784517148",
            "longitude": "103.785688739235"
        },
        {
            "name": "Formosa Delight ",
            "address": "Century Square Tampines Central 5 #3-29 Singapore 529509",
            "latitude": "1.3522780323167",
            "longitude": "103.943727696927"
        },
        {
            "name": "Formosa Delight ",
            "address": "Food Junction Simei Street 6 #4-17 Singapore 528833",
            "latitude": "1.34270618643901",
            "longitude": "103.953024503826"
        },
        {
            "name": "Formosa Delight ",
            "address": "NEX Serangoon Central #B2-37 Singapore 556083",
            "latitude": "1.35043817177432",
            "longitude": "103.87170454945"
        },
        {
            "name": "Formosa Delight ",
            "address": "Parkway Parade Marine Parade Road #B1-K10 Singapore 449269",
            "latitude": "1.30119130748691",
            "longitude": "103.905113592255"
        },
        {
            "name": "Formosa Delight ",
            "address": "Raffles City Shopping Centre North Bridge Road #4-37 Singapore 179103",
            "latitude": "1.29376027875417",
            "longitude": "103.852768332387"
        },
        {
            "name": "Formosa Delight ",
            "address": "Suntec City Temasek Boulevard #B1-24 Singapore 38983",
            "latitude": "1.29487904117327",
            "longitude": "103.857675497949"
        },
        {
            "name": "Formosa Delight ",
            "address": "BreadTalk IHQ Tai Seng Street #1-K22 Singapore 534013",
            "latitude": "1.33434526340427",
            "longitude": "103.889637527633"
        },
        {
            "name": "Formosa Delight ",
            "address": "Vivo City Harbourfront Walk #3-43 Singapore 98585",
            "latitude": "1.2638958023183",
            "longitude": "103.821589254908"
        },
        {
            "name": "Formosa Delight ",
            "address": "Wisma Atria Orchard Road #4-4A Singapore 238877",
            "latitude": "1.30369890150462",
            "longitude": "103.833189600965"
        },
        {
            "name": "Formosa Delight ",
            "address": " Clementi Road #-72 Singapore 129749",
            "latitude": "1.29293436320172",
            "longitude": "103.768693622237"
        },
        {
            "name": "A",
            "address": "Causeway Point Woodlands Square #3-16 Singapore 738099",
            "latitude": "1.43600784517148",
            "longitude": "103.785688739235"
        },
        {
            "name": "A",
            "address": "Chinatown point New Bridge Road #B1-54 Singapore 59413",
            "latitude": "1.28499882771297",
            "longitude": "103.844697085395"
        },
        {
            "name": "A",
            "address": "Junction 8 Bishan Place #1-02 Singapore 579837",
            "latitude": "1.35023942729659",
            "longitude": "103.848477635059"
        },
        {
            "name": "A",
            "address": "Jurong Point 1 Jurong West Central #3-15 Singapore 648886",
            "latitude": "1.33983015257941",
            "longitude": "103.70646088413"
        },
        {
            "name": "A",
            "address": "Nex Serangoon Central #B1-26 Singapore 556083",
            "latitude": "1.35043817177432",
            "longitude": "103.87170454945"
        },
        {
            "name": "A",
            "address": "Suntect City Mall Temaske Boulevard #B1- Singapore 38983",
            "latitude": "1.29487904117327",
            "longitude": "103.857675497949"
        },
        {
            "name": "A",
            "address": "Tampines One Tampines Central #5-36B Singapore 529536",
            "latitude": "1.35431555986081",
            "longitude": "103.945019461564"
        },
        {
            "name": "A",
            "address": "The Seletar Mall Sengkang West Ave #2-41 Singapore 797653",
            "latitude": "1.39139305815613",
            "longitude": "103.876067657689"
        },
        {
            "name": "A",
            "address": "Vivo City Harbourfront Walk #B2-133 Singapore 98585",
            "latitude": "1.2638958023183",
            "longitude": "103.821589254908"
        },
        {
            "name": "A",
            "address": "Kallang Wave Mall Stadium Place #1-6 Singapore 397628",
            "latitude": "1.30384326764684",
            "longitude": "103.872750711332"
        },
        {
            "name": "A",
            "address": "Bedok Mall New Upper Changi Road #B1-10 Singapore 467360",
            "latitude": "1.3247720681702",
            "longitude": "103.929267656464"
        },
        {
            "name": "A",
            "address": "Compass One Sengkang West Avenue #2-11 Singapore 545078",
            "latitude": "1.39209415018227",
            "longitude": "103.894980032554"
        },
        {
            "name": "A",
            "address": "Hillion Mall Petir Road #1-K18 Singapore 678278",
            "latitude": "1.37834971260865",
            "longitude": "103.76274117629"
        },
        {
            "name": "A",
            "address": "North Point Shopping Centre Yishun Ave 2 #2-K7 Singapore 769098",
            "latitude": "1.42969847969485",
            "longitude": "103.835776496688"
        },
        {
            "name": "A",
            "address": "The Star Vista Vista Exchange Green #1-139 Singapore 138617",
            "latitude": "1.3068488176344",
            "longitude": "103.788214531337"
        },
        {
            "name": "A",
            "address": "Tiong Bahru Plaza Tiong Bahru Road #2-22 Singapore 168732",
            "latitude": "1.28646345318687",
            "longitude": "103.826935084287"
        },
        {
            "name": "Canton Paradise ",
            "address": "112 Katong East Coast Road #B1-37 Singapore 428802",
            "latitude": "1.30522305583341",
            "longitude": "103.905043934283"
        },
        {
            "name": "Canton Paradise ",
            "address": "PSA Building Alexander Road #2-1 Singapore 119963",
            "latitude": "1.27367657754602",
            "longitude": "103.801126950046"
        },
        {
            "name": "Canton Paradise ",
            "address": "AMK Hub Ang Mo Kio Aveune 3 #B2-51 Singapore 569933",
            "latitude": "1.36924891282021",
            "longitude": "103.848399227484"
        },
        {
            "name": "Canton Paradise ",
            "address": "Bedok Mall New Upper Changi Road #B2-11 Singapore 467360",
            "latitude": "1.3247720681702",
            "longitude": "103.929267656464"
        },
        {
            "name": "Canton Paradise ",
            "address": "Compass One Sengkang Square #3-12 Singapore 545078",
            "latitude": "1.39209415018227",
            "longitude": "103.894980032554"
        },
        {
            "name": "Canton Paradise ",
            "address": "Jcube Jurong East Central 1 #2-28 Singapore 609731",
            "latitude": "1.33326818684719",
            "longitude": "103.740176740726"
        },
        {
            "name": "Canton Paradise ",
            "address": "The Star Vista Vista Exchange Green #B1- Singapore 138617",
            "latitude": "1.3068488176344",
            "longitude": "103.788214531337"
        },
        {
            "name": "McDonald's ",
            "address": " Boon Keng Road #1-4 Singapore 330022",
            "latitude": "1.3181764214381",
            "longitude": "103.86140380381"
        },
        {
            "name": "McDonald's ",
            "address": " Ang Mo Kio Avenue 1 #-49 Singapore 569981",
            "latitude": "1.36109752447163",
            "longitude": "103.846613418421"
        },
        {
            "name": "McDonald's ",
            "address": "Boat Quay Conservation Area South Canal Road #1-12 Singapore 49014",
            "latitude": "1.28724231331927",
            "longitude": "103.848714041294"
        },
        {
            "name": "NTUC Foodfare ",
            "address": "Simei MRT Station Simei Street 3 #1-1 Singapore 529888",
            "latitude": "1.34320341405214",
            "longitude": "103.953371333879"
        },
        {
            "name": "NTUC Foodfare ",
            "address": "E! Avenue @ Downtown East 1 Pasir Ris Close #1-339 Singapore 519599",
            "latitude": "1.37714073427961",
            "longitude": "103.953599086806"
        },
        {
            "name": "NTUC Foodfare ",
            "address": "Changi Airport Terminal 4 10 Airport Boulevard #2-205M Singapore 819665",
            "latitude": "1.33800813358939",
            "longitude": "103.983482808095"
        },
        {
            "name": "NTUC Foodfare ",
            "address": " Woodlands Ave 6 #2- Singapore 731678",
            "latitude": "1.44041529803397",
            "longitude": "103.801489472558"
        },
        {
            "name": "NTUC Foodfare ",
            "address": "Bukit Batok Driving Centre Bukit Batok West Ave 5 #- Singapore 659085",
            "latitude": "1.3667988361201",
            "longitude": "103.750128280452"
        },
        {
            "name": "NUS ",
            "address": "National University of Singapore Faculty of Science Lower Kent Ridge Road #- Singapore 119077",
            "latitude": "1.30132730954797",
            "longitude": "103.774277259655"
        },
        {
            "name": "NUS ",
            "address": "National University of Singapore Faculty of Science Blk S16  3 Science Drive 2 #- Singapore 117543",
            "latitude": "1.29677923443727",
            "longitude": "103.780208355792"
        },
        {
            "name": "NUS ",
            "address": "National University of Singapore Faculty of Engineering Lower Kent Ridge Road #- Singapore 119077",
            "latitude": "1.30132730954797",
            "longitude": "103.774277259655"
        },
        {
            "name": "NUS ",
            "address": "National University of Singapore Faculty of Arts & Social Sciences Lower Kent Ridge Road #- Singapore 119077",
            "latitude": "1.30132730954797",
            "longitude": "103.774277259655"
        },
        {
            "name": "NUS",
            "address": "National University of Singapore Ventus University Campus Infrastructure Kent Ridge Drive #- Singapore 119246",
            "latitude": "1.29532940239001",
            "longitude": "103.770208669205"
        },
        {
            "name": "NUS",
            "address": " CREATE WAY #1-9 Singapore 138602",
            "latitude": "1.30399550833056",
            "longitude": "103.773492158612"
        },
        {
            "name": "NUS",
            "address": "National University of Singapore The Deck Lower Kent Ridge Road #- Singapore 119077",
            "latitude": "1.30132730954797",
            "longitude": "103.774277259655"
        },
        {
            "name": "NUS",
            "address": "National University of Singapore The Deck Lower Kent Ridge Road #2- Singapore 119077",
            "latitude": "1.30132730954797",
            "longitude": "103.774277259655"
        },
        {
            "name": "NUS",
            "address": "National University of Singapore Mochtar Riady Building  Business School Kent Ridge Drive #1-3 Singapore 119246",
            "latitude": "1.29532940239001",
            "longitude": "103.770208669205"
        },
        {
            "name": "NUS",
            "address": " Prince George\u00e2\u20ac\u2122s Park Residences #- Singapore 118425",
            "latitude": "1.29079946922955",
            "longitude": "103.781304521863"
        },
        {
            "name": "NUS",
            "address": "Town Plaza University Town Create Way #1-12 Singapore 138602",
            "latitude": "1.30399550833056",
            "longitude": "103.773492158612"
        },
        {
            "name": "NUS",
            "address": "National University of Singapore  University Hall Lower Kent Ridge Road #- Singapore 119077",
            "latitude": "1.30132730954797",
            "longitude": "103.774277259655"
        },
        {
            "name": "Pizza Hut ",
            "address": "Lot One Choa Chu Kang Avenue 4 #2-20 Singapore 689812",
            "latitude": "1.38506835667563",
            "longitude": "103.744950384161"
        },
        {
            "name": "Pizza Hut ",
            "address": "Marina Square No. 6 Raffles Boulevard #3-211 Singapore 39594",
            "latitude": "1.29145525906521",
            "longitude": "103.857007341008"
        },
        {
            "name": "Pizza Hut ",
            "address": "NEX Serangoon Central #3-11 Singapore 556083",
            "latitude": "1.35043817177432",
            "longitude": "103.87170454945"
        },
        {
            "name": "Pizza Hut ",
            "address": "North Point Shopping Centre Yishun Avenue 2 #B1-40 Singapore 769098",
            "latitude": "1.42969847969485",
            "longitude": "103.835776496688"
        },
        {
            "name": "Pizza Hut ",
            "address": "University Town Edusports National University of Singapore (NUS College Avenue West #1-4 Singapore 138607",
            "latitude": "1.30477687700985",
            "longitude": "103.772396246249"
        },
        {
            "name": "Pizza Hut ",
            "address": "NUS The Deck Arts Link #- Singapore 117570",
            "latitude": "1.29449083923784",
            "longitude": "103.770991367215"
        },
        {
            "name": "PastaMania ",
            "address": "EHUB,Downtown East Pasir Ris Close #2-125 Singapore 519599",
            "latitude": "1.37714073427961",
            "longitude": "103.953599086806"
        },
        {
            "name": "PastaMania ",
            "address": "FairPrice Hub Joo Koon Circle #1-42 Singapore 629117",
            "latitude": "1.32460664648867",
            "longitude": "103.678096364228"
        },
        {
            "name": "PastaMania ",
            "address": "Harbourfront Centre Maritime Square #2-5 Singapore 99253",
            "latitude": "1.26206336360052",
            "longitude": "103.818625592652"
        },
        {
            "name": "PastaMania ",
            "address": "Hillion Mall Petir Road #B2-48 Singapore 678278",
            "latitude": "1.37834971260865",
            "longitude": "103.76274117629"
        },
        {
            "name": "PastaMania ",
            "address": "JEM Jurong Gateway Road #4-26 Singapore 608549",
            "latitude": "1.33320021038331",
            "longitude": "103.743170436293"
        },
        {
            "name": "PastaMania ",
            "address": "Jurong East Sports & Recreation Centre Jurong East Street 31 #1-1 Singapore 609517",
            "latitude": "1.34621560865382",
            "longitude": "103.728835257122"
        },
        {
            "name": "PastaMania ",
            "address": "Kallang Leisure Park Stadium Walk #1-27 Singapore 397693",
            "latitude": "1.30222177114751",
            "longitude": "103.876152670397"
        },
        {
            "name": "PastaMania ",
            "address": "Lot One Choa Chu Kang Avenue 4 #3-2A Singapore 689812",
            "latitude": "1.38506835667563",
            "longitude": "103.744950384161"
        },
        {
            "name": "PastaMania ",
            "address": "Mapletree Business City Pasir Panjang Road #2-13 Singapore 117439",
            "latitude": "1.27482748253667",
            "longitude": "103.799064831461"
        },
        {
            "name": "PastaMania ",
            "address": "NEX Serangoon Central #4-21 Singapore 556083",
            "latitude": "1.35043817177432",
            "longitude": "103.87170454945"
        },
        {
            "name": "PastaMania ",
            "address": "North Point Shopping Centre Yishun Avenue 2 #3-1 Singapore 769098",
            "latitude": "1.42969847969485",
            "longitude": "103.835776496688"
        },
        {
            "name": "PastaMania ",
            "address": "Sengkang Sports & Recreation Centre Anchorvale Road #2-2 Singapore 544964",
            "latitude": "1.39550158699169",
            "longitude": "103.885784248377"
        },
        {
            "name": "PastaMania ",
            "address": "Singapore Management University (SMU) Stamford Road #B1-47 Singapore 178901",
            "latitude": "1.2966567847865",
            "longitude": "103.850105819151"
        },
        {
            "name": "PastaMania ",
            "address": "Tampines Mall Tampines Central 5 #4-21 Singapore 529510",
            "latitude": "1.35267231590699",
            "longitude": "103.944387987324"
        },
        {
            "name": "PastaMaina ",
            "address": "Viva Business Park Chai Chee Road #1-12 Singapore 469000",
            "latitude": "1.32365172013797",
            "longitude": "103.922102960991"
        },
        {
            "name": "PastaMania ",
            "address": "West Mall Bukit Batok Central Link #1-40 Singapore 658713",
            "latitude": "1.35018915982967",
            "longitude": "103.749021980031"
        },
        {
            "name": "PastaMania ",
            "address": "Commonwealth Capital Building Buroh Lane #6-2 Singapore 618291",
            "latitude": "1.31599217341382",
            "longitude": "103.723345316019"
        },
        {
            "name": "Penang Culture ",
            "address": "Changi Airport Terminal 2 Airport Boulevard Terminal departure viewing mall #3-87-01 Singapore 819643",
            "latitude": "1.35519094047222",
            "longitude": "103.98875098125"
        },
        {
            "name": "Penang Culture ",
            "address": "JEM Jurong Gateway Road #4-27 Singapore 508346",
            "latitude": "1.40845572409022",
            "longitude": "103.960616206202"
        },
        {
            "name": "Penang Culture ",
            "address": "Compass One Sengkang Square #3-13 Singapore 545078",
            "latitude": "1.39209415018227",
            "longitude": "103.894980032554"
        },
        {
            "name": "Penang Culture ",
            "address": "Causeway Point Woodlands Square #5-12 Singapore 738099",
            "latitude": "1.43600784517148",
            "longitude": "103.785688739235"
        },
        {
            "name": "Penang Culture ",
            "address": "White Sands Shopping Centre Pasir Ris Central Street 3 #3-21 Singapore 518457",
            "latitude": "1.3724498161424",
            "longitude": "103.949715702336"
        },
        {
            "name": "Penang Culture ",
            "address": "NEX Serangoon Central #B1-76 Singapore 556083",
            "latitude": "1.35043817177432",
            "longitude": "103.87170454945"
        },
        {
            "name": "Pizza Hut ",
            "address": " Havelock Road #B1-12 Singapore 59763",
            "latitude": "1.2867285259225",
            "longitude": "103.844901331261"
        },
        {
            "name": "Pizza Hut ",
            "address": " Holland Avenue Holland Vilalge MRT Station #B1-7 Singapore 278995",
            "latitude": "1.31224029336003",
            "longitude": "103.796399132045"
        },
        {
            "name": "Pizza Hut ",
            "address": "Hougang Green Shopping Mall Hougang Street 51 #1-1B Singapore 538719",
            "latitude": "1.37924528445215",
            "longitude": "103.887832025097"
        },
        {
            "name": "Pizza Hut ",
            "address": "Hougang Mall Hougang Avenue 10 #2-25 Singapore 538766",
            "latitude": "1.37231185642959",
            "longitude": "103.89366161203"
        },
        {
            "name": "Pizza Hut ",
            "address": "IMM Building Jurong East Street 21 #1-41 Singapore 609601",
            "latitude": "1.33489843717477",
            "longitude": "103.7467344968"
        },
        {
            "name": "Pizza Hut ",
            "address": "Jurong Bird Park Jurong Hill #- Singapore 628925",
            "latitude": "1.32076872821923",
            "longitude": "103.706127010323"
        },
        {
            "name": "Pizza Hut ",
            "address": " Jalan Kayu #- Singapore 799449",
            "latitude": "1.3958743626864",
            "longitude": "103.872783682236"
        },
        {
            "name": "Pizza Hut ",
            "address": " Jalan Malu Malu #- Singapore 769681",
            "latitude": "1.4439935473287",
            "longitude": "103.826292481555"
        },
        {
            "name": "Pizza Hut ",
            "address": "Jurong East Sports & Recreation Centre Jurong East Street 31 #2-1 Singapore 609517",
            "latitude": "1.34621560865382",
            "longitude": "103.728835257122"
        },
        {
            "name": "Pizza Hut ",
            "address": "Jurong Point Jurong West Central 2 #1-33 Singapore 648886",
            "latitude": "1.33983015257941",
            "longitude": "103.70646088413"
        },
        {
            "name": "Pizza Hut ",
            "address": "Jurong Leisure Complex Jurong Superbowl Yuan Ching Road #1-3 Singapore 618642",
            "latitude": "1.32546807053287",
            "longitude": "103.725221540647"
        },
        {
            "name": "Pizza Hut ",
            "address": " Kallang Bahru Stall 7 #1-473 Singapore 330066",
            "latitude": "1.32053916653117",
            "longitude": "103.869690844658"
        },
        {
            "name": "Pizza Hut ",
            "address": "Kampong Ubi Community Centre Jalan Ubi #1-7 Singapore 409075",
            "latitude": "1.31784643130184",
            "longitude": "103.900750126977"
        },
        {
            "name": "Pizza Hut ",
            "address": "Katong East Coast Road #B1-16 Singapore 428802",
            "latitude": "1.30522305583341",
            "longitude": "103.905043934283"
        },
        {
            "name": "Pizza Hut ",
            "address": " Choa Chu Kang Avenue 1 Comfort Garden #- Singapore 689463",
            "latitude": "1.37702265412209",
            "longitude": "103.745708217989"
        },
        {
            "name": "Pizza Hut ",
            "address": "KidZania Beach View #1-01 Singapore 98008",
            "latitude": "1.25126052533091",
            "longitude": "103.820277537649"
        },
        {
            "name": "Pizza Hut ",
            "address": " Kreta Ayer Road #- Singapore 88996",
            "latitude": "1.28061144879732",
            "longitude": "103.842184386639"
        },
        {
            "name": "McDonald's ",
            "address": " Toa Payoh Lorong 1 #1-318 Singapore 310109",
            "latitude": "1.34123727018888",
            "longitude": "103.846202466569"
        },
        {
            "name": "McDonald's ",
            "address": "Trade Hub 21 Boon Lay Way #1-173 Singapore 609971",
            "latitude": "1.32822810050365",
            "longitude": "103.75167301233"
        },
        {
            "name": "McDonald's ",
            "address": "United Square Thomson Road #B1-11 Singapore 307591",
            "latitude": "1.31733462987408",
            "longitude": "103.843463185977"
        },
        {
            "name": "McDonald's ",
            "address": "Vivo City Harbourfront Walk #B2-40 Singapore 98585",
            "latitude": "1.2638958023183",
            "longitude": "103.821589254908"
        },
        {
            "name": "McDonald's ",
            "address": "Waterway point Punggol Central #B2-7 Singapore 828761",
            "latitude": "1.40653610720599",
            "longitude": "103.901988174009"
        },
        {
            "name": "McDonald's ",
            "address": " West Coast Highway #- Singapore 126844",
            "latitude": "1.29754924113523",
            "longitude": "103.763301629562"
        },
        {
            "name": "McDonald's ",
            "address": "Woodlands Point Woodlands Centre Road #1-1 Singapore 738931",
            "latitude": "1.4410886807724",
            "longitude": "103.769098585622"
        },
        {
            "name": "McDonald's ",
            "address": "Woodlands Civic Centre South Woodlands Drive #1-1 Singapore 730900",
            "latitude": "1.43507788583775",
            "longitude": "103.786619621971"
        },
        {
            "name": "McDonald's ",
            "address": "Woodlands Mart Woodlands Avenue 6 #1-1 Singapore 730768",
            "latitude": "1.44562289934866",
            "longitude": "103.798140996577"
        },
        {
            "name": "McDonald's ",
            "address": "Safra Yishun Country Club Yishun Ave 4 #1-11 Singapore 769027",
            "latitude": "1.4242984152118",
            "longitude": "103.840901854867"
        },
        {
            "name": "McDonald's ",
            "address": " Sembawang Road #1-1 Singapore 758382",
            "latitude": "1.42690780790372",
            "longitude": "103.826051902543"
        },
        {
            "name": "McDonald's ",
            "address": " Yishun Street 22 #1-237 Singapore 760293",
            "latitude": "1.43611424629717",
            "longitude": "103.837605238189"
        },
        {
            "name": "McDonald's ",
            "address": "V Hotel Jellicoe Road #1-20 Singapore 208767",
            "latitude": "1.30780927471219",
            "longitude": "103.862525582449"
        },
        {
            "name": "Munch ",
            "address": "Lan Kwai Fong Food Mall Changi Business Park Central 2 #- Singapore 486066",
            "latitude": "1.33475675831051",
            "longitude": "103.965118783923"
        },
        {
            "name": "Munch ",
            "address": " Central Boulevard Downtown Line #B1-4 Singapore 18969",
            "latitude": "1.27944618675989",
            "longitude": "103.852840445837"
        },
        {
            "name": "Munch ",
            "address": " Enggor Street #1-10 Singapore 79717",
            "latitude": "1.27461793906137",
            "longitude": "103.844319558396"
        },
        {
            "name": "Munch ",
            "address": " One Raffles Place #B1-16 Singapore 48616",
            "latitude": "1.28433993485695",
            "longitude": "103.850982351781"
        },
        {
            "name": "Munch ",
            "address": " Paya Lebar Road #1-85 Singapore 409051",
            "latitude": "1.3186757503745",
            "longitude": "103.892550607124"
        },
        {
            "name": "Munch ",
            "address": " Robinson Road #1-1 Singapore 68902",
            "latitude": "1.27928232445888",
            "longitude": "103.848816447714"
        },
        {
            "name": "Munch ",
            "address": "Tiong Bahru Plaza Tiong Bahru Road #1-161 Singapore 168732",
            "latitude": "1.28646345318687",
            "longitude": "103.826935084287"
        },
        {
            "name": "NTUC Foodfare ",
            "address": "AMK Hub Ang Mo Kio Ave 3 #3-12 Singapore 569933",
            "latitude": "1.36924891282021",
            "longitude": "103.848399227484"
        },
        {
            "name": "NTUC Foodfare ",
            "address": "Clementi Mall Commonwealth Avenue West #4-20 Singapore 129588",
            "latitude": "1.31485321802259",
            "longitude": "103.764248205662"
        },
        {
            "name": "NTUC Foodfare ",
            "address": "Clifford Centre Raffles Place #B1-B1 Singapore 48621",
            "latitude": "1.28385698132703",
            "longitude": "103.852128172968"
        },
        {
            "name": "NTUC Foodfare ",
            "address": "FairPrice Hub Joo Koon Circle #3-25 Singapore 629117",
            "latitude": "1.32460664648867",
            "longitude": "103.678096364228"
        },
        {
            "name": "Soup Restaurant ",
            "address": "NEX Serangoon Central #2-15 Singapore 556083",
            "latitude": "1.35043817177432",
            "longitude": "103.87170454945"
        },
        {
            "name": "Soup Restaurant ",
            "address": "Lucky Plaza Orchard road #B1-7 Singapore 238859",
            "latitude": "1.30372321372467",
            "longitude": "103.835240310126"
        },
        {
            "name": "Soup Restaurant ",
            "address": "Suntec City Temasek Boulevard #B1-22 Singapore 38983",
            "latitude": "1.29487904117327",
            "longitude": "103.857675497949"
        },
        {
            "name": "Soup Restaurant ",
            "address": "Toa Payoh Entertainment Centre Toa Payoh Lorong 6 #1-10 Singapore 319394",
            "latitude": "1.33167656389254",
            "longitude": "103.849383940555"
        },
        {
            "name": "Soup Restaurant ",
            "address": "United Square Thomson Road #B1-10 Singapore 307591",
            "latitude": "1.31733462987408",
            "longitude": "103.843463185977"
        },
        {
            "name": "Soup Restaurant ",
            "address": "Vivo City Harbourfront Walk #2-141 Singapore 98585",
            "latitude": "1.2638958023183",
            "longitude": "103.821589254908"
        },
        {
            "name": "Subway ",
            "address": "Anchorpoint Alexandra Road #1-11 Singapore 159953",
            "latitude": "1.28861468740198",
            "longitude": "103.805009965174"
        },
        {
            "name": "Pizza Hut ",
            "address": " Ang Mo Kio Avenue 6 #1-4000 Singapore 560715",
            "latitude": "1.37097329852225",
            "longitude": "103.845905404269"
        },
        {
            "name": "Pizza Hut ",
            "address": " Ang Mo Kio Avenue 10 #1-2349 Singapore 560529",
            "latitude": "1.3723435785166",
            "longitude": "103.85545543393"
        },
        {
            "name": "Pizza Hut ",
            "address": "ARC Alexandra Road Alexandra Retail Centre #1-23 Singapore 119963",
            "latitude": "1.27367657754602",
            "longitude": "103.801126950046"
        },
        {
            "name": "Pizza Hut ",
            "address": " Beach Road #- Singapore 199572",
            "latitude": "1.30162286618257",
            "longitude": "103.861733563712"
        },
        {
            "name": "Pizza Hut ",
            "address": "Bedok Mall New Upper Changi Road #B1-1 Singapore 468360",
            "latitude": "1.32366572504795",
            "longitude": "103.947437253254"
        },
        {
            "name": "Pizza Hut ",
            "address": " Bedok North Street 3 #1-581 Singapore 460539",
            "latitude": "1.33131386249995",
            "longitude": "103.925307293903"
        },
        {
            "name": "Pizza Hut ",
            "address": "Boon Lay Community Centre Boon Lay Place #1-2 Singapore 649882",
            "latitude": "1.34832322532679",
            "longitude": "103.711380186479"
        },
        {
            "name": "Pizza Hut ",
            "address": " Bukit Batok West Avenue 8E #1-262E Singapore 650166",
            "latitude": "1.34716235836063",
            "longitude": "103.742807879366"
        },
        {
            "name": "Pizza Hut ",
            "address": " Bukit Gombak West Avenue 5 Bukit Gombak #1-10 Singapore 659083",
            "latitude": "1.35861158203501",
            "longitude": "103.75179091522"
        },
        {
            "name": "Pizza Hut ",
            "address": " Bukit Merah Central #1-3555 Singapore 150162",
            "latitude": "1.28383730061235",
            "longitude": "103.817466083121"
        },
        {
            "name": "Pizza Hut ",
            "address": "Bukit Panjang Plaza Jelebu Road #2-33 Singapore 677743",
            "latitude": "1.38051732815913",
            "longitude": "103.763961852618"
        },
        {
            "name": "Pizza Hut ",
            "address": "Bukit Timah Plaza Jalan Anak Bukit #1-16A Singapore 588996",
            "latitude": "1.33865676913061",
            "longitude": "103.778560470199"
        },
        {
            "name": "Pizza Hut ",
            "address": "Causeway Point Woodlands Square #B1-25 Singapore 738099",
            "latitude": "1.43600784517148",
            "longitude": "103.785688739235"
        },
        {
            "name": "Pizza Hut ",
            "address": "Choa Chu Kang MRT Station Choa Chu Kang Avenue 4 #1-23 Singapore 689810",
            "latitude": "1.38567271102513",
            "longitude": "103.744139121773"
        },
        {
            "name": "Pizza Hut ",
            "address": "Choa Chu Kang Sports Centre Choa Chu Kang Street 53 #3-2 Singapore 689236",
            "latitude": "1.39066617023505",
            "longitude": "103.74792070975"
        },
        {
            "name": "Pizza Hut ",
            "address": "City Square Mall Kitchener Road #1-19 Singapore 208539",
            "latitude": "1.31130516479713",
            "longitude": "103.856421771906"
        },
        {
            "name": "Pizza Hut ",
            "address": "Compass One Sengkang Square #B1-15 Singapore 545078",
            "latitude": "1.39209415018227",
            "longitude": "103.894980032554"
        },
        {
            "name": "Pizza Hut ",
            "address": "Crown Centre Bukit Timah Road #1-17 Singapore 269694",
            "latitude": "1.32302644835346",
            "longitude": "103.811154874767"
        },
        {
            "name": "Pizza Hut ",
            "address": "NTUC Downtown East Resort Pasir Ris Close #1-4A Singapore 519599",
            "latitude": "1.37714073427961",
            "longitude": "103.953599086806"
        },
        {
            "name": "Pizza Hut ",
            "address": "Eastpoint mall Simei Street 6 #2-3 Singapore 528833",
            "latitude": "1.34270618643901",
            "longitude": "103.953024503826"
        },
        {
            "name": "Pizza Hut ",
            "address": " Eng Kong Terrace #- Singapore 598975",
            "latitude": "1.3364139682336",
            "longitude": "103.768807017993"
        },
        {
            "name": "Pizza Hut ",
            "address": " Ghim Moh #1-215 Singapore 270021",
            "latitude": "1.31008117389536",
            "longitude": "103.788532897544"
        },
        {
            "name": "Pizza Hut ",
            "address": "Greenridge Shopping Centre Jelapang Road #1-4 Singapore 671524",
            "latitude": "1.38529556520098",
            "longitude": "103.766170532015"
        },
        {
            "name": "Pizza Hut ",
            "address": "Harbourfront Centre Maritime Square #1-69 Singapore 99253",
            "latitude": "1.26206336360052",
            "longitude": "103.818625592652"
        },
        {
            "name": "Pizza Hut ",
            "address": "OneKM Tanjong Katong Road #B1-01 Singapore 437157",
            "latitude": "1.31469212668996",
            "longitude": "103.894480527875"
        },
        {
            "name": "Pizza Hut ",
            "address": "Hillion Mall Petir Road #B2-54 Singapore 678278",
            "latitude": "1.37834971260865",
            "longitude": "103.76274117629"
        },
        {
            "name": "Pizza Hut ",
            "address": "Plaza Singapura Orchard Road #B2-1 Singapore 238839",
            "latitude": "1.3007475429726",
            "longitude": "103.845047622213"
        },
        {
            "name": "Pizza Hut ",
            "address": "Punggol Plaza Punggol Field #B1-4 Singapore 820168",
            "latitude": "1.39418409117745",
            "longitude": "103.912976441683"
        },
        {
            "name": "Pizza Hut ",
            "address": "Safra Punggol Sentul Crescent #2-1 Singapore 828654",
            "latitude": "1.41011328238339",
            "longitude": "103.906031928713"
        },
        {
            "name": "Pizza Hut ",
            "address": " Simon Road #- Singapore 545909",
            "latitude": "1.36207278509063",
            "longitude": "103.885706000059"
        },
        {
            "name": "Pizza Hut ",
            "address": "Sun Plaza Hougang Ave 10 #2-25 Singapore 538766",
            "latitude": "1.37231185642959",
            "longitude": "103.89366161203"
        },
        {
            "name": "Pizza Hut ",
            "address": "Our Tampines Hub Tampines Avenue 4 #1-13 Singapore 528523",
            "latitude": "1.35349615471814",
            "longitude": "103.939683594446"
        },
        {
            "name": "Pizza Hut ",
            "address": "Tampines Mall Tampines Central 5 #2-2 Singapore 529510",
            "latitude": "1.35267231590699",
            "longitude": "103.944387987324"
        },
        {
            "name": "Pizza Hut ",
            "address": "Tampines Mart Tampines St 32 #1-15 Singapore 529287",
            "latitude": "1.3545494344309",
            "longitude": "103.959900189822"
        },
        {
            "name": "Pizza Hut ",
            "address": " Tampines Street 11 #1-66 Singapore 521139",
            "latitude": "1.34607674987413",
            "longitude": "103.944284635068"
        },
        {
            "name": "Pizza Hut ",
            "address": " Tanjong Katong Road #- Singapore 437039",
            "latitude": "1.30817179598916",
            "longitude": "103.895304950405"
        },